City,City,Lat,Lng,Max Temp,Humidity,Cloudiness,Wind Speed,Country
0,Tiksi,71.6872,128.8694,-19.14,88,100,8.28,RU
1,Albany,42.6001,-73.9662,39.0,66,97,14.56,US
2,Busselton,-33.65,115.3333,66.99,63,57,7.0,AU
3,Brae,60.3964,-1.353,44.6,87,40,24.16,GB
4,Port Alfred,-33.5906,26.891,70.0,85,8,9.19,ZA
5,Katsuura,35.1333,140.3,39.2,70,20,9.22,JP
6,Lebu,-37.6167,-73.65,61.88,68,0,21.41,CL
7,Messina,38.1933,15.5497,50.0,71,40,6.91,IT
8,Pochutla,15.7432,-96.4661,86.0,51,40,6.35,MX
9,São Filipe,14.8961,-24.4956,74.8,65,0,9.84,CV
10,Kapaa,22.0752,-159.319,73.4,88,40,6.91,US
11,New Norfolk,-42.7826,147.0587,60.01,75,100,4.0,AU
12,Inuvik,68.3499,-133.7218,-5.8,77,91,2.64,CA
13,Sainte-Maxime,43.3,6.6333,52.0,37,3,29.93,FR
14,Saint Paul Harbor,57.79,-152.4072,37.4,75,1,14.97,US
15,Mhlume,-26.0333,31.85,69.8,94,98,2.3,SZ
16,Punta Arenas,-53.15,-70.9167,53.6,94,90,14.97,CL
17,Mataura,-46.1927,168.8643,42.71,92,66,4.03,NZ
18,Nassau,40.7507,-73.5829,44.01,45,20,18.41,US
19,Rikitea,-23.1203,-134.9692,78.44,77,14,14.94,PF
20,Torbay,47.6666,-52.7314,35.01,100,90,14.97,CA
21,University Place,47.2356,-122.5504,46.0,93,90,3.44,US
22,Ushuaia,-54.8,-68.3,51.8,62,90,6.24,AR
23,São João da Barra,-21.6403,-41.0511,87.8,45,0,18.41,BR
24,Saskylakh,71.9167,114.0833,-28.64,84,66,5.99,RU
25,Hobart,-42.8794,147.3294,60.8,59,90,12.66,AU
26,Atuona,-9.8,-139.0333,78.15,76,2,15.3,PF
27,Zhicheng,30.2956,111.5047,37.99,71,8,2.46,CN
28,Deputatsky,69.3,139.9,-33.21,86,100,1.48,RU
29,San Cristobal,7.7669,-72.225,84.2,61,40,8.05,VE
30,Pringsewu,-5.3582,104.9744,73.87,91,95,1.28,ID
31,Coahuayana Viejo,18.7333,-103.6833,77.0,50,40,4.05,MX
32,Kloulklubed,7.0419,134.2556,75.2,100,90,5.75,PW
33,Kumul,42.8,93.45,15.28,74,0,1.48,CN
34,Nizwá,22.9333,57.5333,63.46,28,14,4.16,OM
35,Tilichiki,60.4667,166.1,-16.35,85,100,14.58,RU
36,Paamiut,61.994,-49.6678,28.71,97,100,12.46,GL
37,Vaini,-21.2,-175.2,78.8,94,40,4.61,TO
38,Haines Junction,60.7522,-137.5108,17.6,86,80,2.3,CA
39,Monrovia,6.3005,-10.7969,89.6,51,40,9.57,LR
40,Lorengau,-2.0226,147.2712,83.03,76,86,14.09,PG
41,Sisimiut,66.9395,-53.6735,18.23,92,100,25.03,GL
42,Barrow,71.2906,-156.7887,-0.4,71,90,16.11,US
43,Green River,41.5286,-109.4662,30.2,64,1,26.46,US
44,Aripuanã,-9.1667,-60.6333,84.81,62,99,4.76,BR
45,Grindavik,63.8424,-22.4338,32.0,100,75,17.27,IS
46,Tura,25.5198,90.2201,60.21,62,0,3.83,IN
47,Alta Floresta,-9.8756,-56.0861,77.0,94,90,5.75,BR
48,Zonguldak,41.25,31.8333,27.81,100,100,7.4,TR
49,Doha,25.2867,51.5333,68.0,73,0,5.75,QA
50,Solnechnyy,50.7214,136.6319,-12.37,88,100,0.98,RU
51,Krasnosel'kup,65.7,82.4667,-3.73,91,100,19.19,RU
52,Seguin,29.5688,-97.9647,64.99,24,1,8.05,US
53,Naze,28.3667,129.4833,51.06,80,93,15.01,JP
54,Castro,-24.7911,-50.0119,71.51,90,98,11.97,BR
55,Ribeira Grande,38.5167,-28.7,62.6,94,75,27.63,PT
56,Taree,-31.9,152.4667,60.8,94,76,2.57,AU
57,Avarua,-21.2078,-159.775,75.2,94,82,2.3,CK
58,Qaanaaq,77.484,-69.3632,-1.44,76,0,5.7,GL
59,Olafsvik,64.8945,-23.7142,33.33,92,98,18.01,IS
60,George Town,5.4112,100.3354,81.0,65,20,10.36,MY
61,Jamestown,42.097,-79.2353,34.0,93,90,9.22,US
62,Pimentel,-6.8367,-79.9342,80.6,57,0,14.97,PE
63,Ják,47.1425,16.5815,24.01,88,69,1.01,HU
64,Hithadhoo,-0.6,73.0833,81.57,71,86,4.92,MV
65,Dikson,73.5069,80.5464,-24.27,85,57,17.87,RU
66,Aden,12.7794,45.0367,76.5,68,28,3.47,YE
67,Butaritari,3.0707,172.7902,80.28,76,45,19.08,KI
68,Bluff,-46.6,168.3333,51.75,67,53,21.63,NZ
69,Kushiro,42.975,144.3747,18.18,97,96,5.32,JP
70,Puerto Ayora,-0.7393,-90.3518,82.4,65,75,5.75,EC
71,Hong Kong,22.2855,114.1577,57.0,49,51,11.79,HK
72,Waingapu,-9.6567,120.2641,78.96,79,97,5.01,ID
73,Los Llanos de Aridane,28.6585,-17.9182,66.2,63,75,6.91,ES
74,Cape Town,-33.9258,18.4232,75.2,53,0,18.41,ZA
75,Beringovskiy,63.05,179.3167,-11.47,88,88,9.17,RU
76,Yellowknife,62.456,-114.3525,-2.0,78,90,4.61,CA
77,Mutare,-18.9707,32.6709,69.53,96,100,2.04,ZW
78,Balikpapan,-1.2675,116.8289,75.81,86,100,3.0,ID
79,Huarmey,-10.0681,-78.1522,76.39,66,24,13.18,PE
80,Hermanus,-34.4187,19.2345,73.99,63,9,8.01,ZA
81,Kholodnyy,62.7167,147.95,-28.84,81,100,5.19,RU
82,Nelson Bay,-32.7167,152.15,64.4,88,40,5.59,AU
83,Atasū,48.6814,71.6433,18.1,92,98,5.5,KZ
84,Hilo,19.7297,-155.09,69.8,83,90,5.75,US
85,Salalah,17.0151,54.0924,73.4,49,0,4.61,OM
86,Saint-Philippe,-21.3585,55.7679,82.4,78,20,8.05,RE
87,Tasiilaq,65.6145,-37.6368,21.2,79,20,8.05,GL
88,Mayo,38.8876,-76.5119,46.99,49,1,10.36,US
89,Mount Isa,-20.7333,139.5,82.4,12,21,11.5,AU
90,Grimshaw,56.1834,-117.6027,32.0,86,90,13.8,CA
91,Provideniya,64.3833,-173.3,-9.17,85,77,7.81,RU
92,Mehamn,71.0357,27.8492,37.4,81,75,18.41,NO
93,Pontianak,-0.0333,109.3333,77.0,94,90,4.61,ID
94,Gympie,-26.1898,152.665,73.0,97,25,1.19,AU
95,Utete,-7.986,38.758,76.03,92,85,5.28,TZ
96,Chokurdakh,70.6333,147.9167,-25.11,86,100,7.43,RU
97,Rosetta,31.4044,30.4164,57.2,94,40,11.5,EG
98,Burgersdorp,-30.9977,26.3286,70.84,34,0,12.88,ZA
99,Alofi,-19.0595,-169.9187,69.8,100,89,1.14,NU
100,Olkhovka,53.2115,60.6069,-0.13,90,20,9.6,RU
101,Sørland,67.667,12.6934,35.6,80,75,8.05,NO
102,Inírida,3.8653,-67.9239,84.49,79,45,2.51,CO
103,Bandarbeyla,9.4942,50.8122,75.61,74,73,14.74,SO
104,Port-Cartier,50.0334,-66.8654,30.99,93,100,10.36,CA
105,Palamós,41.8484,3.1291,51.01,25,41,26.89,ES
106,Pilar,-9.5972,-35.9567,86.0,54,40,12.66,BR
107,Namatanai,-3.6667,152.4333,79.83,81,50,10.16,PG
108,Nazaré,-13.035,-39.0144,83.17,63,33,7.72,BR
109,Klaksvík,62.2266,-6.589,39.2,93,75,9.22,FO
110,Townsville,-19.25,146.8,78.8,89,90,11.5,AU
111,Virginia Beach,36.8529,-75.978,48.99,51,0,5.99,US
112,Mormugao,15.4,73.8,82.4,69,20,3.44,IN
113,Tiarei,-17.5333,-149.3333,80.6,74,75,2.3,PF
114,Mar del Plata,-38.0023,-57.5575,66.0,72,75,14.97,AR
115,Tevaitoa,-16.7833,-151.5,80.96,77,3,14.85,PF
116,Nikolskoye,59.7035,30.7861,19.4,93,90,4.47,RU
117,Carutapera,-1.195,-46.02,86.41,61,26,9.55,BR
118,Sola,-13.8833,167.55,82.51,80,95,13.85,VU
119,Ponta do Sol,32.6667,-17.1,57.99,59,44,4.0,PT
120,Airai,-8.9266,125.4092,61.0,100,100,1.12,TL
121,Cherskiy,68.75,161.3,-28.01,84,100,2.06,RU
122,Myitkyina,25.3833,97.4,61.2,68,39,2.33,MM
123,Chimoio,-19.1164,33.4833,71.4,100,100,3.22,MZ
124,Pullman,46.7313,-117.1796,37.99,93,90,12.66,US
125,Methóni,36.8197,21.7049,46.0,61,40,10.18,GR
126,Carnarvon,-24.8667,113.6333,82.4,89,35,6.91,AU
127,Aklavik,68.2191,-135.0107,-16.6,76,75,2.3,CA
128,Sakakah,29.9697,40.2064,53.6,40,0,6.91,SA
129,Nanortalik,60.1432,-45.2371,29.89,96,100,3.18,GL
130,Esperance,-33.8667,121.9,57.2,82,0,10.36,AU
131,Mount Gambier,-37.8333,140.7667,55.4,100,90,6.91,AU
132,La Ronge,55.1001,-105.2842,3.2,78,99,8.05,CA
133,Chongwe,-15.3292,28.682,71.6,88,75,3.44,ZM
134,Salinas,36.6777,-121.6555,63.0,67,1,4.76,US
135,Tuktoyaktuk,69.4541,-133.0374,-2.2,84,90,10.36,CA
136,Warri,5.5167,5.75,81.21,76,51,6.46,NG
137,Forsytheganj,52.6333,29.7333,-0.81,92,100,7.07,BY
138,Qaqortoq,60.7167,-46.0333,26.6,74,90,2.3,GL
139,Galati,45.45,28.05,19.4,73,0,6.91,RO
140,Yuxia,34.0615,108.6291,36.0,68,0,2.24,CN
141,Kavieng,-2.5744,150.7967,83.16,74,83,17.49,PG
142,Vestmannaeyjar,63.4427,-20.2734,37.4,81,75,25.32,IS
143,Penzance,50.1186,-5.5371,46.0,76,40,6.91,GB
144,Taksimo,56.3444,114.8794,-36.09,66,0,0.78,RU
145,Thompson,55.7435,-97.8558,-14.8,76,75,4.61,CA
146,Plettenberg Bay,-34.0527,23.3716,66.58,86,15,9.91,ZA
147,Raudeberg,61.9875,5.1352,37.4,87,75,21.85,NO
148,Lompoc,34.6391,-120.4579,66.0,47,0,8.05,US
149,Hammerfest,70.6634,23.6821,35.6,87,90,3.44,NO
150,Ostrovnoy,68.0531,39.5131,17.19,95,100,8.9,RU
151,Gornopravdinsk,60.05,69.9,-6.61,91,98,5.57,RU
152,Bariloche,-41.1456,-71.3082,80.01,24,0,20.71,AR
153,Longyearbyen,78.2186,15.6401,23.0,74,75,33.38,SJ
154,Boende,-0.2167,20.8667,69.96,96,85,2.24,CD
155,Lagoa,39.05,-27.9833,61.68,91,100,26.91,PT
156,Mokhsogollokh,61.4681,128.9203,-49.77,75,95,4.07,RU
157,Fortuna,40.5982,-124.1573,51.01,100,1,12.66,US
158,Arraial do Cabo,-22.9661,-42.0278,89.6,51,0,19.57,BR
159,Acapulco de Juárez,16.8634,-99.8901,84.2,65,20,5.75,MX
160,Tutóia,-2.7619,-42.2744,82.4,78,75,13.8,BR
161,Omboué,-1.5746,9.2618,78.15,86,97,7.96,GA
162,Vao,-22.6667,167.4833,76.6,85,100,12.01,NC
163,Moindou,-21.6924,165.677,73.4,100,0,2.3,NC
164,Port Elizabeth,-33.918,25.5701,69.8,73,75,8.05,ZA
165,Port Blair,11.6667,92.75,79.34,78,53,15.73,IN
166,Kafue,-15.7691,28.1814,71.6,88,75,3.44,ZM
167,Najrān,17.4924,44.1277,69.8,28,0,4.61,SA
168,Bilibino,68.0546,166.4372,-22.65,81,99,1.68,RU
169,Buraidah,26.326,43.975,62.6,48,0,5.75,SA
170,Seoul,37.5683,126.9778,24.8,80,90,2.3,KR
171,Curăţele,46.7,22.4167,24.8,80,90,2.42,RO
172,East London,-33.0153,27.9116,71.6,78,20,11.5,ZA
173,College,64.8569,-147.8028,10.4,72,90,2.17,US
174,Sambava,-14.2667,50.1667,79.75,85,1,5.57,MG
175,Camacha,33.0833,-16.3333,59.0,67,75,9.22,PT
176,Bengkulu,-3.8004,102.2655,76.62,82,96,4.34,ID
177,Pangnirtung,66.1451,-65.7125,-5.8,77,40,2.3,CA
178,Mandan,46.8267,-100.8896,28.4,80,75,14.97,US
179,Wilmington,34.2257,-77.9447,50.0,43,1,12.66,US
180,Parabel',58.6978,81.4825,12.87,95,99,12.01,RU
181,Alvarães,-3.2208,-64.8042,84.2,84,75,4.61,BR
182,Bambous Virieux,-20.3428,57.7575,81.0,83,40,11.5,MU
183,Veseloyarsk,51.2836,81.1056,9.3,91,57,11.65,RU
184,Ugoofaaru,5.6667,73.0,82.2,75,23,11.56,MV
185,La Bélgica,-17.55,-63.2167,68.0,94,90,11.5,BO
186,Barreirinhas,-2.7469,-42.8264,85.42,69,99,9.8,BR
187,La Providencia,28.7167,-111.5833,71.01,34,0,5.01,MX
188,Hasaki,35.7333,140.8333,34.0,93,20,9.22,JP
189,Harper,4.375,-7.7169,80.89,77,8,6.06,LR
190,Kuandian,40.7286,124.7847,7.16,94,27,0.2,CN
191,Iqaluit,63.7506,-68.5145,-13.0,64,20,4.61,CA
192,Rosignano Marittimo,43.4079,10.4729,42.01,81,0,9.22,IT
193,Magadan,59.5667,150.8,-10.37,88,100,11.88,RU
194,Ancud,-41.8697,-73.8203,64.4,63,0,5.75,CL
195,Port Shepstone,-30.7414,30.455,73.58,78,11,13.78,ZA
196,Barkly West,-28.5354,24.5215,77.0,41,0,4.61,ZA
197,Pailón,-17.65,-62.75,68.0,94,90,11.5,BO
198,Copiapó,-27.3667,-70.3333,69.8,60,0,12.66,CL
199,Iquitos,-3.7481,-73.2472,91.4,55,20,11.5,PE
200,Chui,-33.6971,-53.4616,74.62,62,82,10.69,UY
201,Cabo San Lucas,22.8909,-109.9124,77.0,40,1,2.3,MX
202,Kiunga,-6.1219,141.2906,74.41,98,100,4.45,PG
203,Buinsk,54.95,48.2833,-2.2,84,94,8.95,RU
204,Yamada,39.4667,141.95,25.25,86,1,5.82,JP
205,Waiouru,-39.4833,175.6667,46.42,89,66,8.14,NZ
206,Manokwari,-0.8667,134.0833,78.76,77,100,5.32,ID
207,Leningradskiy,69.3833,178.4167,-23.82,85,62,5.91,RU
208,Abu Kamal,34.4506,40.9171,58.5,38,37,14.97,SY
209,Puerto Escondido,15.85,-97.0667,80.6,74,40,3.44,MX
210,Kenai,60.5544,-151.2583,34.0,86,90,13.8,US
211,Aleksandrov Gay,50.147,48.5704,2.41,93,99,7.09,RU
212,Christchurch,-43.5333,172.6333,57.0,87,20,11.5,NZ
213,Kavaratti,10.5669,72.642,82.44,73,5,4.52,IN
214,Grand Gaube,-20.0064,57.6608,81.0,78,91,11.01,MU
215,Totolapan,18.5167,-96.1833,77.0,64,75,10.36,MX
216,Mahébourg,-20.4081,57.7,80.6,83,40,11.5,MU
217,Aswān,24.0934,32.907,61.56,33,43,6.29,EG
218,Margate,51.3813,1.3862,42.01,80,69,3.0,GB
219,Wasilla,61.5814,-149.4394,35.01,60,40,3.11,US
220,Palmer,42.1584,-72.3287,42.01,52,75,12.66,US
221,Codrington,-38.2667,141.9667,58.96,79,100,10.54,AU
222,Noumea,-22.2763,166.4572,80.01,100,0,2.3,NC
223,Shenjiamen,29.9576,122.298,36.82,71,0,2.44,CN
224,Comodoro Rivadavia,-45.8667,-67.5,77.0,36,0,12.66,AR
225,Mattru,7.6244,-11.8332,85.55,42,0,1.23,SL
226,Andenes,69.3143,16.1194,32.0,93,75,5.75,NO
227,Obzor,42.8167,27.8833,24.8,80,75,6.91,BG
228,Nushki,29.5542,66.0215,54.97,30,0,5.06,PK
229,Pouembout,-21.1333,164.9,77.02,90,100,5.84,NC
230,Udachny,66.4167,112.4,-34.37,81,100,3.74,RU
231,Fare,-16.7,-151.0167,81.03,76,2,13.69,PF
232,Qaryat Sulūq,31.6682,20.2521,53.85,69,30,5.03,LY
233,Calabozo,8.9242,-67.4293,93.18,33,0,7.63,VE
234,Yaan,7.3833,8.5667,87.33,13,29,4.12,NG
235,Faanui,-16.4833,-151.75,81.05,77,9,15.35,PF
236,Upernavik,72.7868,-56.1549,6.8,79,2,4.38,GL
237,Clyde River,70.4692,-68.5914,6.8,92,90,24.16,CA
238,Husavik,66.0449,-17.3389,32.0,93,90,3.44,IS
239,Ukiah,39.1502,-123.2078,55.99,81,1,1.72,US
240,Geraldton,-28.7667,114.6,84.2,48,89,4.61,AU
241,Lata,40.1629,-8.3327,53.6,71,0,4.61,PT
242,Zverinogolovskoye,54.4586,64.8542,4.77,91,66,10.98,RU
243,Cayenne,4.9333,-52.3333,86.0,66,75,13.8,GF
244,Opuwo,-18.0607,13.84,75.2,46,66,12.62,NA
245,Saint George,37.1041,-113.5841,39.2,45,1,1.19,US
246,El Paso,31.8001,-106.2005,48.0,21,75,2.75,US
247,Ouro Preto do Oeste,-10.7481,-62.2158,82.15,81,93,4.34,BR
248,Cintalapa,16.6951,-93.7272,80.37,54,72,1.77,MX
249,Katobu,-4.9408,122.5276,75.65,92,100,2.21,ID
250,Aktas,49.7789,72.9608,15.8,79,0,6.71,KZ
251,Saldanha,-33.0117,17.9442,78.8,47,7,14.97,ZA
252,Mananara,-16.1667,49.7667,77.94,87,36,1.74,MG
253,Sokoni,-6.4333,39.55,82.4,78,20,13.8,TZ
254,Cidreira,-30.1811,-50.2056,80.38,84,98,7.47,BR
255,Maceió,-9.6658,-35.7353,86.0,54,40,12.66,BR
256,Kailua,21.4022,-157.7394,71.6,83,20,4.61,US
257,Andros Town,24.7,-77.7667,69.8,60,75,6.91,BS
258,Sesheke,-17.4759,24.2968,71.65,89,91,5.37,ZM
259,Simbahan,6.3032,120.5836,77.76,89,100,23.47,PH
260,Padang,-0.9492,100.3543,77.0,94,75,3.44,ID
261,Ozernovskiy,51.5,156.5167,22.82,92,100,38.43,RU
262,Carballo,43.213,-8.691,54.0,91,64,0.67,ES
263,Saint-Augustin,51.226,-58.6502,33.8,92,100,25.68,CA
264,Villanueva de la Serena,38.9766,-5.7974,43.81,72,21,1.68,ES
265,Aksay,47.26,39.87,18.0,86,90,22.37,RU
266,Ola,59.5833,151.2833,-11.22,86,100,15.08,RU
267,Karratha,-20.7377,116.8463,89.78,54,82,7.4,AU
268,Rawson,-43.3002,-65.1023,67.62,50,0,12.88,AR
269,Visnes,59.3556,5.2242,37.99,87,75,13.8,NO
270,Nome,64.5011,-165.4064,6.8,72,1,9.22,US
271,Panjāb,34.388,67.0233,12.63,69,17,4.45,AF
272,Mayrtup,43.2017,46.1333,33.8,100,90,15.66,RU
273,Kabo,7.6994,18.629,82.96,16,41,4.25,CF
274,Bethel,41.3712,-73.414,41.0,48,90,12.66,US
275,Albion,42.2431,-84.753,33.8,93,90,6.91,US
276,Along,28.1667,94.7667,54.32,70,0,1.63,IN
277,Richards Bay,-28.783,32.0377,74.23,80,66,6.29,ZA
278,Labuhan,-6.8844,112.2051,77.29,88,98,9.04,ID
279,Hvide Sande,56.0045,8.1294,33.01,81,100,20.36,DK
280,Arrondissement d'Ajaccio,42.0,8.9167,48.2,87,90,4.61,FR
281,Valencia,39.3333,-0.8333,64.4,36,0,10.36,ES
282,Lyubashivka,47.8372,30.2598,13.69,94,49,6.17,UA
283,Brandon,27.9378,-82.2859,60.8,59,90,5.5,US
284,Khvorostyanka,52.6096,48.9597,-5.67,90,20,2.53,RU
285,Tulsīpur,28.131,82.2973,60.01,75,1,1.99,NP
286,Tuatapere,-46.1333,167.6833,45.77,79,50,7.25,NZ
287,Mahabalipuram,12.6264,80.1722,77.0,73,40,2.3,IN
288,Norman Wells,65.282,-126.8329,-14.8,84,75,3.44,CA
289,Indramayu,-6.3264,108.32,80.28,82,95,13.67,ID
290,Ushibukamachi,32.1906,130.0228,40.55,68,53,10.25,JP
291,Ploemeur,47.7333,-3.4333,46.0,70,0,3.44,FR
292,Vila Velha,-20.3297,-40.2925,87.01,58,20,17.27,BR
293,Sheregesh,52.9209,87.9869,13.44,95,97,3.96,RU
294,Arman',59.7,150.1667,-13.07,87,100,15.73,RU
295,Kiryat Gat,31.61,34.7642,55.99,58,64,16.24,IL
296,Chalchuapa,13.9867,-89.6811,80.6,50,0,5.75,SV
297,Eenhana,-17.4667,16.3333,86.0,39,97,2.3,NA
298,Ayan,56.45,138.1667,-24.72,73,0,12.86,RU
299,Caravelas,-17.7125,-39.2481,83.05,60,49,9.91,BR
300,Nyurba,63.2842,118.3319,-33.11,83,100,6.33,RU
301,San Quintín,30.4833,-115.95,70.9,30,0,2.04,MX
302,Razdol'noye,43.55,131.9167,-13.0,77,76,4.47,RU
303,Poplar Bluff,36.757,-90.3929,41.0,52,1,9.22,US
304,Ilulissat,69.2167,-51.1,21.2,63,75,8.05,GL
305,Debre Tabor,11.85,38.0167,57.27,36,84,4.0,ET
306,Salinópolis,-0.6136,-47.3561,84.61,69,33,9.17,BR
307,Ondangwa,-17.9167,15.95,86.0,39,100,2.3,NA
308,Koksovyy,48.1967,40.5989,14.11,97,100,15.46,RU
309,Arinos,-15.9169,-46.1056,80.64,71,100,5.06,BR
310,Hofn,64.2539,-15.2082,39.2,60,75,20.71,IS
311,Caxito,-8.5785,13.6643,82.4,69,20,11.5,AO
312,Marawi,7.9986,124.2928,75.99,91,100,4.0,PH
313,Skibbereen,51.55,-9.2667,42.8,87,75,5.75,IE
314,Jeremoabo,-10.075,-38.4808,92.39,31,5,15.41,BR
315,Takoradze,4.8845,-1.7554,81.12,76,6,7.63,GH
316,Simplício Mendes,-7.8539,-41.9103,90.84,40,84,7.27,BR
317,Bajah,13.8141,44.6301,67.93,58,19,0.98,YE
318,Kindu,-2.95,25.95,73.8,82,25,1.61,CD
319,Touros,-5.1989,-35.4608,86.0,62,40,20.71,BR
320,Lavrentiya,65.5833,-171.0,-9.76,83,97,10.98,RU
321,Takhtamygda,54.1,123.5667,-24.0,78,100,5.14,RU
322,Rohatyn,49.409,24.6093,23.0,74,75,11.18,UA
323,Beyneu,45.3167,55.2,35.04,85,96,13.47,KZ
324,Coffs Harbour,-30.3,153.1333,66.2,88,76,3.6,AU
325,Asău,46.4333,26.4,18.0,86,90,2.3,RO
326,Sungai Raya,0.7,108.9,77.34,85,95,11.68,ID
327,Narsaq,60.9167,-46.05,26.6,74,90,2.3,GL
328,Cabadiangan,9.7531,122.4739,77.05,74,100,12.93,PH
329,Kahului,20.8947,-156.47,71.6,83,40,6.91,US
330,Umba,66.6871,34.3429,19.26,96,94,2.59,RU
331,Kyaikkami,16.08,97.5675,77.7,61,42,14.25,MM
332,Pisco,-13.7,-76.2167,77.0,61,0,11.5,PE
333,Chumikan,54.7183,135.315,-20.9,77,90,8.23,RU
334,Beverley,53.8459,-0.4233,42.01,87,95,10.36,GB
335,Falam,22.9167,93.6833,46.15,94,1,0.72,MM
336,Arkhangel’skoye,55.8549,35.3287,-10.82,91,45,2.75,RU
337,Fort Nelson,58.8053,-122.7002,17.6,93,75,3.44,CA
338,Newcastle,-32.9272,151.7765,71.01,88,40,5.61,AU
339,Äänekoski,62.6946,25.818,23.0,100,0,1.14,FI
340,Jega,12.2175,4.3792,88.81,12,81,8.9,NG
341,Maibong,25.3,93.1667,57.43,77,0,0.56,IN
342,Belawan,3.7755,98.6832,78.8,94,40,2.3,ID
343,Mogadishu,2.0371,45.3438,77.18,81,18,20.92,SO
344,Gizo Government Station,-8.103,156.8419,83.39,76,56,10.27,SB
345,Oranjemund,-28.55,16.4333,65.53,81,0,11.77,NA
346,Aykhal,66.0,111.5,-34.49,81,100,4.0,RU
347,Esim,4.8699,-2.2405,81.23,75,21,6.71,GH
348,Taman',45.2117,36.7161,23.0,86,90,20.13,RU
349,West Plains,36.7281,-91.8524,39.2,56,1,11.5,US
350,Karema,-6.8205,30.4389,72.79,74,82,0.65,TZ
351,Seminole,28.7086,-81.2081,59.0,54,75,5.5,US
352,Henties Bay,-22.116,14.2845,71.01,78,37,10.16,NA
353,Dzilam González,21.2833,-88.9333,73.06,51,65,5.61,MX
354,Newport,51.5877,-2.9984,45.0,84,100,1.01,GB
355,Bac Lieu,9.285,105.7244,73.53,78,48,8.03,VN
356,Kilindoni,-7.9139,39.6668,81.46,81,63,13.67,TZ
357,Agapovka,53.2973,59.1348,1.4,78,75,13.42,RU
358,Bredasdorp,-34.5322,20.0403,71.6,68,10,13.8,ZA
359,Topchānchi,23.9,86.2,56.14,46,0,1.9,IN
360,Manta,-0.95,-80.7333,82.4,69,20,8.05,EC
361,Kadiri,14.1167,78.1667,66.92,73,43,4.59,IN
362,Huilong,31.8111,121.655,37.0,57,0,8.9,CN
363,Kochi,9.9399,76.2602,80.6,83,20,3.44,IN
364,Vostok,46.4856,135.8833,-13.9,88,67,3.67,RU
365,Uvat,59.1433,68.8953,-0.38,93,100,7.0,RU
366,Zigong,29.3416,104.7769,41.83,76,84,3.67,CN
367,Belmonte,-15.8631,-38.8828,86.0,66,20,6.91,BR
368,Harstad,68.799,16.5293,28.99,93,0,4.54,NO
369,Sur,22.5667,59.5289,67.05,64,0,4.74,OM
370,Katra,32.9833,74.95,48.88,51,0,3.76,IN
371,Bastrop,32.7562,-91.8724,55.99,35,40,11.5,US
372,Peski,55.2163,38.7626,-4.0,84,0,6.71,RU
373,Isabela,6.7085,121.9711,77.32,88,100,6.17,PH
374,Formia,41.2563,13.6058,41.0,87,96,1.01,IT
375,Anadyr,64.75,177.4833,-11.0,77,20,6.71,RU
376,Taoudenni,22.6783,-3.9836,65.61,23,0,13.24,ML
377,Wanning,18.8003,110.3967,59.18,70,63,13.6,CN
378,Novaya Tavolzhanka,50.3512,36.8298,-2.2,78,0,4.47,RU
379,Muswellbrook,-32.2667,150.9,62.01,70,98,1.99,AU
380,Ketchikan,55.3422,-131.6461,44.6,100,90,4.61,US
381,Elliot Lake,46.3834,-82.6331,24.8,74,1,10.36,CA
382,Ous,60.9058,61.5186,-13.29,89,94,4.9,RU
383,Loudi,27.7344,111.9944,39.43,65,0,2.44,CN
384,Nuuk,64.1835,-51.7216,23.0,74,75,17.27,GL
385,Balabac,7.9868,117.0645,76.71,91,100,3.85,PH
386,Boundiali,9.5217,-6.4869,86.9,13,0,4.34,CI
387,Chanika,-5.4167,38.0167,70.21,99,86,4.76,TZ
388,Garden City,42.3256,-83.331,39.2,75,90,11.5,US
389,Broome,42.2506,-75.833,36.0,74,90,17.27,US
390,Ribeira Brava,32.65,-17.0667,57.99,76,38,6.93,PT
391,Pucallpa,-8.3791,-74.5539,84.2,74,75,9.22,PE
392,Lima,-12.0432,-77.0282,77.0,68,0,13.8,PE
393,Boldva,48.2167,20.8,21.99,73,40,1.14,HU
394,Sittwe,20.15,92.9,65.39,70,0,4.12,MM
395,Yenagoa,4.9247,6.2642,80.53,78,43,6.08,NG
396,Staritsa,56.5075,34.9354,-8.66,90,0,0.87,RU
397,Taltal,-25.4,-70.4833,70.27,59,6,5.12,CL
398,Petropavlovsk-Kamchatskiy,53.0452,158.6483,17.6,86,90,4.47,RU
399,Vardø,70.3705,31.1107,33.8,86,40,16.11,NO
400,Jalingo,8.8833,11.3667,83.71,16,34,3.89,NG
401,Gunjur,13.2019,-16.7339,82.4,32,89,11.5,GM
402,Santa Cruz de la Sierra,-17.8,-63.1667,68.0,100,90,17.27,BO
403,Natchez,31.5604,-91.4032,55.4,44,1,9.22,US
404,Hualmay,-11.0964,-77.6139,76.08,66,42,13.89,PE
405,Mkwanga,-7.118,39.2078,80.6,83,20,20.71,TZ
406,Waipawa,-41.4122,175.5153,62.6,59,5,23.02,NZ
407,Buchanan,5.8808,-10.0467,89.6,51,40,8.57,LR
408,Tatsunochō-tominaga,34.8667,134.55,35.01,54,12,1.01,JP
409,Laas,46.6166,10.7002,32.0,74,90,8.05,IT
410,Mnogovershinnyy,53.9353,139.9242,-26.88,84,55,2.8,RU
411,Tomatlán,19.9333,-105.25,87.35,31,13,6.53,MX
412,Reconquista,-29.15,-59.65,79.63,39,76,14.2,AR
413,Dingle,10.9995,122.6711,75.34,90,100,7.81,PH
414,Cockburn Town,21.4612,-71.1419,78.01,75,100,11.41,TC
415,Kruisfontein,-34.0033,24.7314,70.0,77,52,3.0,ZA
416,Tual,-5.6667,132.75,83.26,78,100,18.5,ID
417,Sorong,-0.8833,131.25,77.29,88,99,4.7,ID
418,Port Hawkesbury,45.6169,-61.3485,43.0,75,75,17.27,CA
419,Boa Vista,2.8197,-60.6733,87.8,48,75,13.8,BR
420,Inyonga,-6.7167,32.0667,66.92,90,74,3.62,TZ
421,Luang Prabang,19.8856,102.1347,64.24,65,87,3.33,LA
422,Rājula,21.05,71.4333,66.96,57,0,8.01,IN
423,Kununurra,-15.7667,128.7333,82.4,89,60,3.44,AU
424,Santa Helena de Goiás,-17.8136,-50.5969,74.43,89,100,2.68,BR
425,Te Anau,-45.4167,167.7167,44.04,82,67,5.26,NZ
426,Hamilton,39.1834,-84.5333,36.0,87,90,8.05,US
427,Santa María del Oro,25.9333,-105.3667,62.35,26,0,2.17,MX
428,Murrhardt,48.9819,9.5705,33.01,95,100,2.8,DE
429,Pontes e Lacerda,-15.2261,-59.3353,81.99,85,96,7.9,BR
430,Houston,29.7633,-95.3633,62.01,25,1,10.36,US
431,Nara,34.6851,135.8049,35.01,52,9,5.86,JP
432,Chapais,49.7834,-74.8492,24.8,93,90,8.05,CA
433,Mossamedes,-15.1961,12.1522,75.54,67,48,10.02,AO
434,San Rafael,-34.6177,-68.3301,82.92,17,0,8.63,AR
435,Soyo,-6.1349,12.3689,80.19,75,35,12.3,AO
436,Mariental,-24.6333,17.9667,87.55,19,0,6.53,NA
437,Avera,33.194,-82.5271,50.0,43,1,10.94,US
438,Yārāda,17.65,83.2667,73.4,88,20,2.3,IN
439,Vila,42.0304,-8.1588,59.0,82,0,5.75,PT
440,Kapit,2.0167,112.9333,71.17,94,100,0.16,MY
441,Pīshvā,35.308,51.7267,44.6,87,40,6.91,IR
442,Meulaboh,4.1363,96.1285,77.16,82,100,4.21,ID
443,Korla,41.7597,86.1469,16.9,81,0,2.37,CN
444,Kolyvan',55.3053,82.7391,17.6,86,75,13.42,RU
445,Shache,38.4167,77.2406,20.59,80,42,1.61,CN
446,Souillac,-20.5167,57.5167,80.6,83,40,11.5,MU
447,Borgarnes,64.5383,-21.9206,33.8,86,75,13.8,IS
448,Farap,39.1704,63.6116,44.6,76,0,11.5,TM
449,Balkhash,46.844,74.9804,11.53,90,66,9.22,KZ
450,Okoneshnikovo,54.8377,75.0834,19.92,95,93,19.08,RU
451,Natal,-5.795,-35.2094,86.0,58,40,19.57,BR
452,Grandview,38.8858,-94.533,39.99,69,20,10.36,US
453,Ust-Nera,64.5667,143.2,-38.96,70,37,5.41,RU
454,Sinnamary,5.3833,-52.95,80.62,79,86,13.29,GF
455,Lodja,-3.4833,23.4333,73.49,75,54,2.17,CD
456,Teacapan,22.55,-105.75,76.95,30,0,4.18,MX
457,Khatanga,71.9667,102.5,-24.3,81,0,12.97,RU
458,Shitanjing,39.2342,106.3439,22.77,60,0,8.05,CN
459,Srednekolymsk,67.45,153.6833,-40.67,81,45,2.68,RU
460,Mitsamiouli,-11.3847,43.2844,81.88,76,3,8.3,KM
461,Palanga,55.9175,21.0686,6.8,92,90,3.44,LT
462,Talara,-4.5772,-81.2719,86.0,54,0,13.8,PE
463,Tommot,58.9564,126.2925,-47.87,73,46,0.85,RU
464,Sept-Îles,50.2001,-66.3821,30.99,93,100,10.36,CA
465,Elizabeth City,36.2946,-76.2511,48.0,57,1,12.66,US
466,Arrondissement de Cognac,45.5,-0.25,44.6,65,0,2.3,FR
467,Hambantota,6.1241,81.1185,76.98,87,91,13.18,LK
468,Jelgava,56.65,23.7128,-0.4,85,0,3.44,LV
469,Malé,4.1748,73.5089,82.4,78,20,4.61,MV
470,Conceição do Araguaia,-8.2578,-49.2647,89.44,60,33,1.83,BR
471,Corinth,37.9407,22.9573,39.0,58,55,3.0,GR
472,Wakefield,53.6809,-1.499,44.01,85,100,9.95,GB
473,Khor,47.8861,134.9464,-7.98,90,100,4.43,RU
474,Cherëmukhovo,60.3484,59.9851,-10.39,88,62,3.36,RU
475,Kwekwe,-18.9281,29.8149,68.83,94,100,2.89,ZW
476,Batticaloa,7.7102,81.6924,77.95,83,71,6.91,LK
477,Novy Urengoy,66.0833,76.6333,-10.37,90,100,14.9,RU
478,Bow Island,49.8668,-111.3684,37.4,65,100,4.61,CA
479,Yining,29.0361,114.5636,34.3,77,0,1.72,CN
480,Jining,35.405,116.5814,29.64,78,0,6.89,CN
481,Severo-Kuril'sk,50.6789,156.125,22.3,90,94,37.58,RU
482,Ladário,-19.0047,-57.6017,82.4,78,75,10.36,BR
483,Okha,53.5739,142.9478,-18.45,87,45,14.09,RU
484,Labuan,5.2767,115.2417,75.2,94,20,3.44,MY
485,El Viejo,12.6633,-87.1672,87.8,51,20,4.61,NI
486,Enköping,59.6361,17.0777,28.4,86,90,4.61,SE
487,Maryborough,-25.5333,152.7,75.99,83,43,1.01,AU
488,San Fernando del Valle de Catamarca,-28.4696,-65.7852,80.01,57,12,1.01,AR
489,Pesnica pri Mariboru,46.6069,15.6767,28.99,74,90,2.3,SI
490,Pevek,69.7008,170.3133,-28.39,86,7,2.57,RU
491,Musoma,-1.5,33.8,73.4,78,75,4.25,TZ
492,Bolila,6.3717,125.5714,76.78,82,100,7.4,PH
493,Vicuña,-30.0319,-70.7081,68.0,64,0,12.66,CL
494,Jungapeo de Juárez,19.45,-100.4833,68.0,59,84,5.99,MX
495,Muroto-misakicho,33.2833,134.15,40.91,68,2,10.33,JP
496,Vani,42.0832,42.5216,50.0,87,90,5.75,GE
497,Kuvandyk,51.4781,57.3552,-3.15,91,92,3.06,RU
498,Fairbanks,64.8378,-147.7164,10.4,85,75,1.9,US
499,Dehlorān,32.6941,47.2679,58.77,57,100,5.06,IR
500,Quelimane,-17.8786,36.8883,91.4,70,40,16.11,MZ
501,Hibbing,47.4272,-92.9377,21.99,93,90,5.75,US
502,Constitución,-35.3333,-72.4167,72.1,42,1,17.92,CL
503,Luwuk,-0.9516,122.7875,77.2,81,100,4.72,ID
504,Tokoroa,-38.2333,175.8667,55.99,90,64,7.0,NZ
505,Road Town,18.4167,-64.6167,80.6,78,40,9.22,VG
506,Marsh Harbour,26.5412,-77.0636,68.43,57,100,10.94,BS
507,Sabha,27.0377,14.4283,49.82,47,0,7.81,LY
508,Viedma,-40.8135,-62.9967,78.01,37,0,14.74,AR
509,Havre-St-Pierre,50.2334,-63.5986,28.4,93,90,24.16,CA
510,Porto Santo,33.072,-16.3415,59.0,67,75,9.22,PT
511,Ilhabela,-23.7781,-45.3581,82.11,74,95,5.79,BR
512,Quirinópolis,-18.4483,-50.4517,75.31,87,100,2.06,BR
513,Aasiaat,68.7098,-52.8699,17.31,93,99,17.05,GL
514,Svetlaya,46.5389,138.3297,4.1,82,98,8.21,RU
515,Saurikh,27.029,79.4896,53.31,53,0,5.21,IN
516,Egvekinot,66.3167,-179.1667,-14.42,86,100,12.44,RU
517,Karasjok,69.4719,25.5112,37.4,70,75,12.66,NO
518,Flinders,-34.5833,150.8552,62.6,77,75,4.61,AU
519,Nevşehir,38.9167,34.6667,30.2,86,75,6.91,TR
520,Atherton,53.5237,-2.4935,44.01,76,100,1.99,GB
521,Khorixas,-20.3667,14.9667,78.87,47,60,20.22,NA
522,Langsa,4.4683,97.9683,74.86,93,78,1.95,ID
523,Namie,37.4833,141.0,27.0,90,22,4.05,JP
524,Kaitangata,-46.2817,169.8464,50.0,67,71,5.99,NZ
525,Kot Kapūra,30.5833,74.9,47.86,60,0,6.58,IN
526,Mahon,39.8885,4.2658,53.6,71,20,5.75,ES
527,Port Hardy,50.6996,-127.4199,44.6,93,40,6.58,CA
528,Bubaque,11.2833,-15.8333,77.86,55,84,7.05,GW
529,Catalão,-18.1658,-47.9464,79.45,63,100,5.37,BR
530,Rehoboth,-23.3167,17.0833,83.14,28,33,5.68,NA
531,Chernyshevskiy,63.0128,112.4714,-40.04,82,99,6.33,RU
532,Kysyl-Syr,63.8986,122.7617,-38.72,81,100,2.86,RU
533,Finnsnes,69.2296,17.9811,12.2,92,20,2.3,NO
534,Jalu,29.0331,21.5482,53.28,66,2,8.39,LY
535,Cañar,-2.55,-78.9333,69.8,49,75,4.61,EC
536,Arrondissement de Saumur,47.3333,-0.25,46.0,76,90,3.44,FR
537,Coquimbo,-29.9533,-71.3436,68.0,64,0,12.66,CL
538,Cukai,4.25,103.4167,78.8,73,81,10.36,MY
539,San Matías,-16.3667,-58.4,86.92,65,87,9.01,BO
540,Baykit,61.67,96.37,-19.64,82,100,5.64,RU
541,Clarksville,36.5298,-87.3595,44.01,61,40,11.5,US
542,Plover,44.4564,-89.544,28.99,68,40,6.91,US
543,Andreapol',56.6513,32.2664,-1.01,93,1,2.51,RU
544,Jodhpur,26.2867,73.03,63.52,48,0,7.23,IN
545,Sayyan,15.1718,44.3244,49.48,47,40,1.19,YE
546,Arlit,18.7369,7.3853,72.93,19,100,15.48,NE
547,Banjar,-8.19,114.9675,78.8,89,75,4.61,ID
548,Saint-Paul,-21.0096,55.2707,81.0,73,0,17.27,RE
549,Musson,49.5833,5.7,36.0,91,100,1.99,BE
550,Kudahuvadhoo,2.6708,72.8944,81.93,73,24,7.02,MV
551,Sanguéya,10.7,-14.3667,86.65,32,83,8.28,GN
552,San Jerónimo,-11.9472,-75.2829,61.74,50,100,5.3,PE
553,Sobolevo,54.4299,31.8996,-7.17,91,0,5.75,RU
554,Port Keats,-14.25,129.55,82.15,78,33,3.83,AU
555,Sitka,57.0531,-135.33,42.8,81,90,11.5,US
556,Samaná,19.2056,-69.3369,84.2,79,20,9.22,DO
557,Wu’an,31.6836,112.0044,37.81,71,0,2.51,CN
558,Vágur,61.4732,-6.8119,42.19,77,95,30.24,FO
559,Poum,-20.2333,164.0167,81.81,83,100,11.61,NC
560,Riyadh,24.6877,46.7219,69.8,43,0,6.91,SA
561,Lircay,-12.9896,-74.7205,62.6,67,90,2.3,PE
562,Resistencia,-27.4606,-58.9839,81.0,44,0,17.27,AR
563,Roebourne,-20.7833,117.1333,90.39,48,81,9.06,AU
564,Horsham,51.064,-0.3272,42.01,75,0,5.75,GB
565,Nixa,37.0434,-93.2944,39.99,68,46,5.99,US
566,Necochea,-38.5473,-58.7368,66.0,76,84,25.97,AR
567,Yar-Sale,66.8333,70.8333,-13.16,89,100,14.9,RU
568,Mīnāb,27.1467,57.0801,69.8,78,0,6.91,IR
569,Curug,-6.2658,106.5564,81.0,83,40,6.91,ID
570,Kaeo,-35.1,173.7833,60.01,94,9,1.01,NZ
571,Jönköping,57.7814,14.1562,24.8,93,90,5.75,SE
572,Iskateley,67.6803,53.1512,-16.98,89,1,4.65,RU
573,Gualeguaychú,-33.0094,-58.5172,80.01,45,0,8.01,AR
574,Barão de Melgaço,-16.1944,-55.9675,77.0,88,75,9.22,BR
575,Mel'nikovo,56.5558,84.085,15.01,88,100,7.0,RU
576,Peddapalli,18.6167,79.3667,69.04,49,0,1.77,IN
577,Talcahuano,-36.7167,-73.1167,71.6,53,0,13.8,CL
578,Buloh Kasap,2.5536,102.764,77.0,83,20,9.22,MY
579,Stawell,-37.05,142.7667,49.42,92,6,7.07,AU
580,Ardabil,38.2498,48.2933,38.61,71,16,20.11,IR
581,Hirara,24.8,125.2833,59.34,74,89,25.66,JP
582,Sire,12.9299,5.2043,79.86,16,32,8.9,NG
583,Kungurtug,50.5994,97.5228,5.41,86,98,1.95,RU
584,Tramandaí,-29.9847,-50.1336,79.95,86,92,9.28,BR
585,Mabaruma,8.2,-59.7833,79.39,86,20,6.82,GY
586,Acaraú,-2.8856,-40.12,87.12,59,37,17.02,BR
587,Maués,-3.3836,-57.7186,95.77,36,1,3.18,BR
588,Igarka,67.4667,86.5833,-8.88,89,100,22.93,RU
589,Muhoroni,-0.1541,35.1988,66.92,78,82,2.73,KE
590,Miajadas,39.1513,-5.9084,43.21,73,20,1.5,ES
591,Santa Isabel Rio Negro,-0.4139,-65.0192,86.32,70,10,4.94,BR
592,Yanagawa,33.1667,130.4,33.01,28,0,3.0,JP
593,Athabasca,54.7169,-113.2854,30.2,93,98,4.61,CA
594,Minas,-34.3759,-55.2377,73.99,64,75,25.32,UY
595,Emba,48.8264,58.1442,17.98,91,35,4.99,KZ
596,Pimenta Bueno,-11.6725,-61.1936,79.29,91,82,3.42,BR
597,Saint-Pierre,-21.3393,55.4781,82.4,78,20,8.05,RE
598,Kwinana,-32.25,115.7667,82.0,18,81,12.66,AU
599,Quang Ngai,15.1167,108.8,66.09,85,91,12.77,VN
600,Poya,-21.35,165.15,77.56,89,100,6.62,NC
601,Peniche,39.3558,-9.3811,53.01,73,60,5.01,PT
602,Mongu,-15.2484,23.1274,73.6,69,99,2.8,ZM
603,Tambura,5.6,27.4667,78.51,21,44,3.29,SS
604,Kulashi,42.2044,42.3494,50.0,87,90,5.75,GE
605,Lengshuitan,26.4111,111.5956,41.58,59,0,0.36,CN
606,Banda Aceh,5.5577,95.3222,78.85,85,37,11.41,ID
607,Vanimo,-2.6741,141.3028,79.5,84,92,6.06,PG
608,Örnsköldsvik,63.2909,18.7153,-0.4,92,84,3.44,SE
609,Aksu,41.1231,80.2644,14.29,85,0,3.94,CN
610,Mitzic,0.7821,11.549,72.16,93,75,1.83,GA
611,Pacific Grove,36.6177,-121.9166,63.0,55,1,11.18,US
612,Grande Prairie,55.1667,-118.8027,33.8,80,75,10.36,CA
613,Dunedin,-45.8742,170.5036,52.0,79,94,1.99,NZ
614,Hammond,41.5834,-87.5,30.2,93,90,8.05,US
615,Winnipeg,49.8844,-97.147,15.8,79,98,8.05,CA
616,Nhulunbuy,-12.2333,136.7667,80.6,89,100,6.91,AU
617,Skeldon,5.8833,-57.1333,83.41,67,32,9.53,GY
618,Zyryanka,65.75,150.85,-37.66,83,100,4.03,RU
619,Yekaterinoslavka,50.3734,129.1139,-20.07,88,99,6.44,RU
620,Isangel,-19.55,169.2667,79.52,83,99,5.14,VU
621,Qasigiannguit,68.8193,-51.1922,21.2,63,75,8.05,GL
622,Onega,63.9061,38.1404,18.23,97,100,7.34,RU
623,Valparaíso,-33.0393,-71.6273,68.0,60,0,6.91,CL
624,Waren,53.5167,12.6833,30.0,84,47,4.63,DE
625,Kandalaksha,67.162,32.4123,24.01,96,89,2.73,RU
626,Leshukonskoye,64.8989,45.7622,-2.94,92,100,1.83,RU
627,Yerbogachën,61.2767,108.0108,-43.56,79,77,3.98,RU
628,Dedza,-14.3779,34.3332,63.73,100,97,1.5,MW
629,Constantine,36.365,6.6147,48.2,53,0,3.6,DZ
630,Suntar,62.1444,117.6319,-35.34,81,100,6.11,RU
631,Mumford,5.2618,-0.759,80.76,78,4,10.71,GH
632,Nagua,19.3832,-69.8474,82.4,78,40,11.5,DO
633,Xam Nua,20.4197,104.0439,44.76,91,99,2.55,LA
634,Zabid,14.1951,43.3152,76.1,66,82,2.19,YE
635,Jiexiu,37.0244,111.9125,28.94,56,0,8.9,CN
636,Khovd,48.0056,91.6419,0.81,81,94,0.83,MN
637,San Miguelito,9.0333,-79.5,88.0,70,40,6.91,PA
638,Coolum Beach,-26.5333,153.1,73.99,95,23,2.59,AU
639,Qax,41.4225,46.9242,37.4,93,40,4.61,AZ
640,Tegul'det,57.3064,88.1667,12.47,95,100,10.87,RU
641,Saurimo,-9.6608,20.3916,75.2,73,75,3.02,AO
642,Ulaangom,49.9811,92.0667,-19.68,86,100,1.83,MN
643,Mason City,43.1536,-93.201,26.01,86,75,12.66,US
644,El Alto,-4.2714,-81.2147,86.0,54,0,13.8,PE
645,Gaur,26.7667,85.2667,58.93,65,0,3.6,NP
646,Chicama,-7.8447,-79.1469,69.8,78,0,9.22,PE
647,Warmbad,-28.45,18.7333,87.91,12,0,8.88,NA
648,Corbélia,-24.7989,-53.3067,69.01,98,100,14.0,BR
649,Bud,39.447,-86.1758,32.0,97,99,11.9,US
650,Sirte,31.2089,16.5887,58.1,67,8,17.02,LY
651,Guasdualito,7.2424,-70.7324,87.75,48,76,6.89,VE
652,La Libertad,-2.2333,-80.9,82.4,74,20,6.91,EC
653,Maigo,8.1613,123.9583,77.34,83,100,7.78,PH
654,Mackay,-21.15,149.2,78.8,83,90,10.36,AU
655,Dhidhdhoo,6.8833,73.1,81.86,80,3,13.11,MV
656,Sumbe,-11.2061,13.8437,77.32,77,17,10.38,AO
657,Dvinskoy,62.1535,45.1175,-0.87,92,91,4.54,RU
658,Batagay-Alyta,67.8006,130.4114,-34.11,82,100,1.66,RU
659,Port Lincoln,-34.7333,135.8667,58.68,79,67,11.88,AU
660,Port Moresby,-9.4431,147.1797,78.8,94,20,4.61,PG
661,Bontang,0.1333,117.5,76.14,87,99,4.5,ID
662,Terrace,54.5163,-128.6035,37.4,100,90,8.05,CA
663,Pozo Colorado,-23.4923,-58.7972,72.32,90,100,11.77,PY
664,Bathsheba,13.2167,-59.5167,78.8,78,75,21.85,BB
665,Atar,20.5169,-13.0499,75.11,15,100,14.74,MR
666,Half Moon Bay,37.4636,-122.4286,61.0,55,1,8.16,US
667,São Félix do Xingu,-6.6447,-51.995,86.22,68,56,1.21,BR
668,Östersund,63.1792,14.6357,1.99,85,90,3.44,SE
669,Kinablangan,7.6947,126.5503,75.38,84,100,10.13,PH
670,Rassvet,46.8333,40.75,21.04,97,100,15.97,RU
671,Inhambane,-23.865,35.3833,82.4,89,75,6.26,MZ
672,Opmeer,52.7067,4.9444,41.0,90,18,9.15,NL
673,Diapaga,12.0708,1.7889,82.56,14,89,6.22,BF
674,Monroe,43.1501,-77.6831,39.0,75,90,17.27,US
675,Nshamba,-1.7983,31.5511,73.4,78,20,1.34,TZ
676,Nelson,-41.2833,173.2833,60.01,70,53,14.88,NZ
677,Zhigansk,66.7697,123.3711,-41.03,80,100,6.71,RU
678,Sosnovo-Ozerskoye,52.5249,111.5418,-31.56,78,0,1.7,RU
679,Kyrenia,35.3417,33.3167,51.8,66,40,12.66,CY
680,Liverpool,53.4106,-2.9779,43.0,87,0,8.05,GB
681,Lüderitz,-26.6481,15.1594,67.32,70,19,15.82,NA
682,Aksarka,66.5606,67.7975,-15.61,87,100,19.06,RU
683,Dudinka,69.4058,86.1778,-14.49,80,100,9.15,RU
684,Trairi,-3.2778,-39.2689,86.36,57,24,14.94,BR
685,São Miguel do Araguaia,-13.275,-50.1628,82.72,74,98,3.02,BR
686,Porto Recanati,43.4365,13.6613,39.99,10,100,4.0,IT
687,San Patricio,28.017,-97.5169,69.8,46,1,10.36,US
688,Saint-Joseph,-21.3667,55.6167,82.4,78,20,8.05,RE
689,Fenoarivo Atsinanana,-17.3667,49.4167,79.84,84,96,1.59,MG
690,Bara,10.3744,10.7288,79.02,17,40,7.11,NG
691,Jonesboro,35.8423,-90.7043,44.01,52,1,18.41,US
692,Jinchang,38.4953,102.1739,24.82,61,0,2.84,CN
693,Berlevåg,70.8578,29.0864,37.4,93,75,21.85,NO
694,Vestmanna,62.1564,-7.1664,39.2,93,75,9.22,FO
695,Khanu Woralaksaburi,16.0617,99.8606,78.01,49,74,17.74,TH
696,Eydhafushi,5.1033,73.0708,82.35,72,0,11.18,MV
697,Barentu,15.1139,37.5928,66.97,62,52,9.4,ER
698,Quesnel,52.9999,-122.5029,32.0,80,90,4.61,CA
699,Sioux City,42.5,-96.4003,32.0,80,40,20.71,US
700,Khatassy,61.9036,129.6383,-52.6,58,100,3.38,RU
701,Thinadhoo,0.5333,72.9333,82.6,67,93,2.48,MV
702,Iroquois Falls,48.7669,-80.6831,6.8,78,90,11.5,CA
703,Port Hedland,-20.3167,118.5667,86.0,70,40,9.22,AU
704,Berdigestyakh,62.0989,126.6992,-47.67,76,99,3.91,RU
705,Yulara,-25.2406,130.9889,69.8,24,0,6.91,AU
706,Izumo,35.3667,132.7667,32.0,80,75,5.75,JP
